{
  "type": "FeatureCollection",
  "features": [
    {
      "type": "Feature",
      "properties": {
        "Address": " 2546 Montrose Ave.",
        "Phone": "tel:6048500426",
        "City": "Ab",
        "Deal": "Little gets in free when big pays $5 cover. Tuesdays half off",
        "Category": "Entertainment",
        "Name": "Boardwalk Cafe and Games"
      },
      "geometry": {
        "type": "Point",
        "coordinates": [
          -122.29015812277792,
          49.04813388649018
        ]
      }
    },
    {
      "type": "Feature",
      "properties": {
        "Address": " 20104 Logan Ave",
        "Phone": "604-514- 2282",
        "City": "La",
        "Deal": "2 games per player for only $9.25 + GST, Available in 3 locations",
        "Category": "Entertainment",
        "Name": "Planet Lazer"
      },
      "geometry": {
        "type": "Point",
        "coordinates": [
          -122.66726966947317,
          49.11121958870399
        ]
      }
    },
    {
      "type": "Feature",
      "properties": {
        "Address": " 2-2712 Clearbrook Rd",
        "Phone": "778-654-3388",
        "City": "Ab",
        "Deal": "Use the coupon code YOUTHOFABBY when reserving online and receive a 25% discount off any day. ",
        "Category": "Entertainment",
        "Name": "VRCADE"
      },
      "geometry": {
        "type": "Point",
        "coordinates": [
          -122.33735561370848,
          49.05139660187196
        ]
      }
    },
    {
      "type": "Feature",
      "properties": {
        "Phone": "604-853-3477",
        "Address": "36036 South Parallel Rd",
        "City": "Ab",
        "Deal": "Big and Little each pay Junior rate to pay 9 or 18 holes of golf. Free club rentals for Big and Little at driving range. Little receives 1 free drop of balls (approx. 18 balls) at the range when Big purchases.",
        "Category": "Recreation",
        "Name": "Fraserglen Golf Course"
      },
      "geometry": {
        "type": "Point",
        "coordinates": [
          -122.22955226898195,
          49.03305686936007
        ]
      }
    },
    {
      "type": "Feature",
      "properties": {
        "Address": "2536 Montrose Ave",
        "Phone": "604-855-1138",
        "City": "Ab",
        "Deal": "Buy one piece and get the 2nd one for equal or lesser value at 1/2 price.",
        "Category": "Crafts",
        "Name": "The Clay Cottage"
      },
      "geometry": {
        "type": "Point",
        "coordinates": [
          -122.29017153382301,
          49.04797654647394
        ]
      }
    },
    {
      "type": "Feature",
      "properties": {
        "Address": "36165 North Parallel Rd",
        "Phone": "604-850-0411",
        "City": "Ab",
        "Deal": "Buy one mini-golf, get one golf free for Bigs and Littles",
        "Category": "Adventure",
        "Name": "Castle Fun Park"
      },
      "geometry": {
        "type": "Point",
        "coordinates": [
          -122.2240161895752,
          49.038578313316016
        ]
      }
    },
    {
      "type": "Feature",
      "properties": {
        "Address": "2550 Yale Ct, Abbotsford, BC V2S 8G9",
        "Phone": "",
        "City": "Ab",
        "Deal": "Littles do not pay drop in fee when Big is a member (LB/LS must be at least 14 years old. Must workout together.",
        "Category": "Fitness",
        "Name": "Great West Fitness"
      },
      "geometry": {
        "type": "Point",
        "coordinates": [
          -122.26958155632018,
          49.04713358226541
        ]
      }
    },
    {
      "type": "Feature",
      "properties": {
        "Name": "Big Brothers Big Sisters of the Fraser Valley Head Office",
        "Category": "Head Office",
        "Address": ""
      },
      "geometry": {
        "type": "Point",
        "coordinates": [
          -122.28693779557942,
          49.04626247493557
        ]
      }
    },
    {
      "type": "Feature",
      "properties": {
        "Address": "45939 Wellington Ave",
        "Name": "The Book Man",
        "City": "Ch",
        "Category": "Education",
        "Phone": ""
      },
      "geometry": {
        "type": "Point",
        "coordinates": [
          -121.95343226194382,
          49.17141419488054
        ]
      }
    },
    {
      "type": "Feature",
      "properties": {
        "Address": "9145 Corbould St",
        "Name": "Chilliwack Landing Leisure Center",
        "City": "Ch",
        "Category": "Recreation"
      },
      "geometry": {
        "type": "Point",
        "coordinates": [
          -121.96579456329347,
          49.16882577904028
        ]
      }
    },
    {
      "type": "Feature",
      "properties": {
        "Address": "#101 - 5885 Vedder Rd.",
        "City": "Ch",
        "Name": "Bubba's Big Bites",
        "Category": "Food"
      },
      "geometry": {
        "type": "Point",
        "coordinates": [
          -121.95906758308412,
          49.1091986739026
        ]
      }
    },
    {
      "type": "Feature",
      "properties": {
        "Address": "44335 Yale Rd",
        "Deal": "",
        "City": "Ch",
        "Category": "Food",
        "Name": "Cookies Grill",
        "Phone": ""
      },
      "geometry": {
        "type": "Point",
        "coordinates": [
          -121.99744462966918,
          49.14537656485306
        ]
      }
    },
    {
      "type": "Feature",
      "properties": {
        "Address": "45380 Luckakuck Way",
        "City": "Ch",
        "Category": "Entertainment",
        "Name": "Cottonwood4U Cinemas",
        "Deal": ""
      },
      "geometry": {
        "type": "Point",
        "coordinates": [
          -121.96921974420549,
          49.142069136107295
        ]
      }
    },
    {
      "type": "Feature",
      "properties": {
        "Address": "45929B Wellington Ave. ",
        "Category": "Entertainment",
        "Name": "Darkside Games",
        "City": "Ch"
      },
      "geometry": {
        "type": "Point",
        "coordinates": [
          -121.95362336933613,
          49.171492231061464
        ]
      }
    },
    {
      "type": "Feature",
      "properties": {
        "Address": "215 Kilby Rd. ",
        "City": "Ha",
        "Deal": "Little pays ($7) big gets in free",
        "Category": "Education",
        "Name": "Kilby Historic Site",
        "Phone": ""
      },
      "geometry": {
        "type": "Point",
        "coordinates": [
          -121.95914268493651,
          49.23587045399044
        ]
      }
    },
    {
      "type": "Feature",
      "properties": {
        "Address": "41905 Yale Road West",
        "City": "Ch",
        "Name": "Chilliwack Corn Maze",
        "Category": "Recreation",
        "Deal": "Big pays, little gets in free"
      },
      "geometry": {
        "type": "Point",
        "coordinates": [
          -122.06379175186157,
          49.131001243025175
        ]
      }
    },
    {
      "type": "Feature",
      "properties": {
        "Address": "4000 Columbia Valley",
        "Name": "Tap-ins putting course",
        "Category": "Recreation",
        "Deal": "Big pays. little gets in free",
        "City": "Ch"
      },
      "geometry": {
        "type": "Point",
        "coordinates": [
          -121.96407794952393,
          49.072319650112306
        ]
      }
    },
    {
      "type": "Feature",
      "properties": {
        "Address": "53790 Popkum Rd. South Rosedale",
        "City": "Ch",
        "Deal": "Buy one get one free admission",
        "Category": "Recreation",
        "Name": "Bridal Falls Water Park",
        "Phone": ""
      },
      "geometry": {
        "type": "Point",
        "coordinates": [
          -121.74014568328856,
          49.18736959615986
        ]
      }
    },
    {
      "type": "Feature",
      "properties": {
        "Address": "46191 Chilliwack Lake Road",
        "City": "Ch",
        "Deal": "Half price on rentals ($10) & $5  for 100 paintballs",
        "Category": "Recreation",
        "Name": "Snipers Paintball",
        "Phone": ""
      },
      "geometry": {
        "type": "Point",
        "coordinates": [
          -121.93968057632445,
          49.08699304025951
        ]
      }
    },
    {
      "type": "Feature",
      "properties": {
        "Address": " 7650 Grand Street",
        "City": "Mi",
        "Deal": "",
        "Category": "Fitness",
        "Name": "Mission Leisure Center"
      },
      "geometry": {
        "type": "Point",
        "coordinates": [
          -122.30662822723389,
          49.14063204655012
        ]
      }
    },
    {
      "type": "Feature",
      "properties": {
        "Address": "33038 2nd Ave",
        "City": "Mi",
        "Deal": "",
        "Category": "Crafts",
        "Name": "Mission Clay Works"
      },
      "geometry": {
        "type": "Point",
        "coordinates": [
          -122.30856478214264,
          49.13513773391755
        ]
      }
    },
    {
      "type": "Feature",
      "properties": {
        "Address": "32670 Lougheed Hwy",
        "Phone": "",
        "City": "Mi",
        "Deal": "",
        "Category": "Self-Care ",
        "Name": "Beautiful U Boutique"
      },
      "geometry": {
        "type": "Point",
        "coordinates": [
          -122.31992393732071,
          49.13261060188528
        ]
      }
    },
    {
      "type": "Feature",
      "properties": {
        "Address": "190 22255 Dewdney Trunk Road",
        "City": "MR",
        "Category": "Crafts",
        "Name": "The Create Shop"
      },
      "geometry": {
        "type": "Point",
        "coordinates": [
          -122.60404229164122,
          49.221083436250225
        ]
      }
    },
    {
      "type": "Feature",
      "properties": {
        "Address": "20475 Lougheed Hwy Unit No 7",
        "City": "MR",
        "Category": "Fitness",
        "Name": "Sun Hang Do Martial Arts"
      },
      "geometry": {
        "type": "Point",
        "coordinates": [
          -122.6539421081543,
          49.21960834527737
        ]
      }
    },
    {
      "type": "Feature",
      "properties": {
        "Address": "12027 Harris Rd",
        "City": "MR",
        "Deal": "",
        "Category": "Fitness",
        "Name": "Ridge Meadows Parks & Leisure Services"
      },
      "geometry": {
        "type": "Point",
        "coordinates": [
          -122.69153594970703,
          49.22087671594
        ]
      }
    },
    {
      "type": "Feature",
      "properties": {
        "Address": "19190 Lougheed Hwy",
        "City": "MR",
        "Category": "Recreation",
        "Name": "Hollywood 3 Cinema"
      },
      "geometry": {
        "type": "Point",
        "coordinates": [
          -122.6900714635849,
          49.22994882146309
        ]
      }
    },
    {
      "type": "Feature",
      "properties": {
        "Address": "5-2043 Abbotsford Way",
        "City": "Ab",
        "Deal": "",
        "Category": "Recreation",
        "Name": "Play Abbotsford"
      },
      "geometry": {
        "type": "Point",
        "coordinates": [
          -122.27760940790175,
          49.040099240366466
        ]
      }
    },
    {
      "type": "Feature",
      "properties": {
        "Address": "#5-2630 Bourquin Crescent West",
        "City": "Ab",
        "Category": "Education",
        "Name": "The Book Man"
      },
      "geometry": {
        "type": "Point",
        "coordinates": [
          -122.30914145708084,
          49.049598267452325
        ]
      }
    },
    {
      "type": "Feature",
      "properties": {
        "Address": "4211 Gladwin Rd",
        "City": "Ab",
        "Category": "Fitness",
        "Name": "Valley Golf Center"
      },
      "geometry": {
        "type": "Point",
        "coordinates": [
          -122.31765747070314,
          49.07867302932616
        ]
      }
    }
  ]
}